City_ID,City,Lat,Lng,Max Temp,Humidity,Cloudiness,Wind Speed,Country,Date
0,stanley,54.868,-1.6985,48.22,87,100,2.3,GB,1730763178
1,tuy hoa,13.0833,109.3,75.79,92,87,3.11,VN,1730763179
2,igarka,67.4667,86.5833,17.87,95,67,11.23,RU,1730763180
3,adamstown,-25.066,-130.1015,70.38,80,97,20.56,PN,1730763086
4,lihue,21.9789,-159.3672,83.79,71,20,12.66,US,1730763182
5,grand falls-windsor,48.9332,-55.6649,27.72,76,32,6.29,CA,1730763183
6,bethel,41.3712,-73.414,53.69,73,75,4.61,US,1730763150
7,ringkobing,56.0901,8.244,48.18,100,100,2.3,DK,1730763185
8,west island,-12.1568,96.8225,78.78,89,40,16.11,CC,1730763173
9,esil,51.9556,66.4042,29.25,65,54,7.54,KZ,1730763188
10,sur,22.5667,59.5289,80.85,51,2,7.2,OM,1730763189
11,port elizabeth,-33.918,25.5701,54.32,99,75,9.22,ZA,1730763115
12,port mathurin,-19.6833,63.4167,74.68,79,74,12.73,MU,1730763191
13,carnarvon,-24.8667,113.6333,69.39,67,1,18.68,AU,1730763192
14,kodiak,57.79,-152.4072,38.71,60,100,8.05,US,1730763193
15,edinburgh of the seven seas,-37.0676,-12.3116,56.77,76,80,3.87,SH,1730763194
16,port-aux-francais,-49.35,70.2167,42.53,91,99,37.51,TF,1730763128
17,olonkinbyen,70.9221,-8.7187,29.91,83,100,25.84,SJ,1730763196
18,saint-philippe,-21.3585,55.7679,73.2,83,39,7.99,RE,1730763198
19,daru,-9.0763,143.2092,82.11,82,100,12.59,PG,1730763199
20,dudinka,69.4058,86.1778,19.78,90,55,17.65,RU,1730763200
21,trondheim,63.4305,10.3951,46.99,92,100,1.01,NO,1730763201
22,puerto natales,-51.7236,-72.4875,41.04,74,68,10.67,CL,1730763202
23,kupino,54.3663,77.2981,29.32,74,1,13.4,RU,1730763204
24,wailua homesteads,22.0669,-159.378,83.19,77,20,12.66,US,1730763206
25,kegeyli shahar,42.7767,59.6078,46.11,52,100,8.75,UZ,1730763207
26,zholymbet,51.7433,71.7122,28.4,76,3,7.81,KZ,1730763208
27,canoinhas,-26.1772,-50.39,63.25,100,99,2.46,BR,1730763209
28,magadi,12.9667,77.2333,64.31,92,51,6.4,IN,1730763210
29,yellowknife,62.456,-114.3525,28.42,99,75,5.01,CA,1730763131
30,talnakh,69.4865,88.3972,17.69,96,81,9.06,RU,1730763212
31,avarua,-21.2078,-159.775,77.05,83,20,11.5,CK,1730763213
32,pariaman,-0.619,100.12,77.05,79,96,3.83,ID,1730763215
33,ribeira grande,38.5167,-28.7,67.77,72,65,15.01,PT,1730763216
34,goure,13.9835,10.2704,74.53,21,0,9.15,NE,1730763217
35,waitangi,-43.9535,-176.5597,50.85,66,69,17.2,NZ,1730763111
36,mar del plata,-38.0023,-57.5575,61.88,65,0,7.0,AR,1730763219
37,ushuaia,-54.8,-68.3,46.06,66,75,21.85,AR,1730763220
38,tiksi,71.6872,128.8694,-10.97,98,79,5.75,RU,1730763196
39,vadso,70.0744,29.7487,32.16,86,75,14.97,NO,1730763222
40,quelimane,-17.8786,36.8883,78.75,83,20,8.05,MZ,1730763224
41,isafjordur,66.0755,-23.124,35.62,90,100,5.35,IS,1730763225
42,hawaiian paradise park,19.5933,-154.9731,75.9,99,100,10.36,US,1730763183
43,caleta de carquin,-11.0925,-77.6267,65.68,86,51,9.37,PE,1730763227
44,nar'yan-mar,67.6713,53.087,26.6,91,100,7.78,RU,1730763228
45,blackmans bay,-43.0167,147.3167,63.52,53,1,4.0,AU,1730763229
46,papatowai,-46.5619,169.4708,59.72,56,52,10.33,NZ,1730763230
47,kolobrzeg,54.1757,15.5834,40.96,73,0,8.41,PL,1730763231
48,ust'-abakan,53.8525,91.3742,26.51,100,100,0.0,RU,1730763233
49,port alfred,-33.5906,26.891,52.18,97,100,1.01,ZA,1730763234
50,riyadh,24.6877,46.7219,74.93,29,0,7.74,SA,1730763188
51,grytviken,-54.2811,-36.5092,38.16,85,100,14.83,GS,1730763236
52,udachny,66.4167,112.4,0.25,93,98,9.04,RU,1730763161
53,lompoc,34.6391,-120.4579,67.51,52,0,16.11,US,1730763018
54,vilyuchinsk,52.9306,158.4028,23.27,69,40,5.73,RU,1730763239
55,yalihuyuk,37.3008,32.0855,40.15,80,5,3.89,TR,1730763241
56,whitehorse,60.7161,-135.0538,31.1,80,75,4.0,CA,1730763242
57,thompson,55.7435,-97.8558,32.16,93,100,4.61,CA,1730763243
58,holualoa,19.6228,-155.9522,82.26,64,40,5.75,US,1730763244
59,uturoa,-16.7333,-151.4333,79.95,81,91,10.56,PF,1730763245
60,kzyltu,53.6364,72.3414,28.29,77,17,12.39,KZ,1730763247
61,przemysl,49.785,22.7673,33.19,76,11,1.97,PL,1730763249
62,gaspe,48.8334,-64.4819,30.42,80,100,6.91,CA,1730763250
63,puerto ayora,-0.7393,-90.3518,67.87,74,75,10.94,EC,1730763108
64,beyneu,45.3167,55.2,38.71,54,13,13.18,KZ,1730763254
65,bilibino,68.0546,166.4372,-15.39,99,96,0.76,RU,1730763149
66,keflavik,64.0049,-22.5624,48.63,100,100,24.16,IS,1730763257
67,beau vallon,-20.4189,57.6953,72.43,76,1,4.52,MU,1730763258
68,lebu,-37.6167,-73.65,51.37,87,44,1.66,CL,1730763259
69,longyearbyen,78.2186,15.6401,22.84,68,0,11.5,SJ,1730763062
70,kirensk,57.7853,108.1119,15.06,89,94,2.73,RU,1730763261
71,taft,31.7471,54.2088,60.75,39,0,4.61,IR,1730763262
72,inirida,3.8653,-67.9239,76.26,94,99,3.96,CO,1730763263
73,invercargill,-46.4,168.35,57.02,73,49,17.0,NZ,1730763015
74,haiku-pauwela,20.9219,-156.3051,84.22,76,40,20.71,US,1730763267
75,hamilton,39.1834,-84.5333,73.78,65,75,8.05,US,1730763268
76,port shepstone,-30.7414,30.455,59.68,86,100,23.15,ZA,1730763269
77,newman,37.3138,-121.0208,70.03,29,1,8.01,US,1730763270
78,shingu,33.7333,135.9833,68.81,69,95,2.04,JP,1730763271
79,minas de marcona,-15.2119,-75.1103,56.8,85,20,14.18,PE,1730763272
80,sanctuary point,-35.1114,150.629,64.74,67,100,5.93,AU,1730763274
81,petawawa,45.9001,-77.3328,39.78,93,100,1.99,CA,1730763275
82,soure,-0.7167,-48.5233,80.83,75,31,12.97,BR,1730763276
83,santa elena de uairen,4.6167,-61.1333,75.79,57,97,3.65,VE,1730763277
84,hadibu,12.65,54.0333,78.22,78,10,4.81,YE,1730763278
85,touros,-5.1989,-35.4608,77.79,77,10,15.55,BR,1730763281
86,villanueva,15.3167,-88.0,82.74,78,20,8.05,HN,1730763011
87,jumla,29.2747,82.1838,41.14,89,50,3.67,NP,1730763283
88,bardai,11.65,7.2333,67.23,29,3,7.7,NG,1730763284
89,konstantinovka,49.6167,127.9833,18.81,68,19,10.45,RU,1730763285
90,cooma,-36.2333,149.1333,69.62,37,51,7.61,AU,1730763047
91,portland,45.5234,-122.6762,55.89,90,40,9.22,US,1730763231
92,iqaluit,63.7506,-68.5145,20.93,79,75,2.3,CA,1730763290
93,kayangel,8.0823,134.7173,83.86,74,79,10.27,PW,1730763291
94,eastham,41.8301,-69.9739,50.99,81,99,13.18,US,1730763292
95,la'ie,21.6477,-157.9253,85.96,77,35,11.01,US,1730763163
96,argo,37.6333,22.7333,55.42,75,0,4.88,GR,1730763294
97,selebi-phikwe,-21.979,27.8498,72.23,19,0,6.71,BW,1730763295
98,bhamo,24.2667,97.2333,65.64,95,1,1.41,MM,1730763296
99,ishigaki,24.3448,124.1572,77.13,88,75,13.8,JP,1730763297
100,shitanjing,39.2342,106.3439,38.37,58,0,3.8,CN,1730763299
101,anadyr,64.75,177.4833,18.1,78,0,22.37,RU,1730763287
102,santiago,-33.4569,-70.6483,69.24,45,0,14.97,CL,1730763283
103,montego bay,18.4712,-77.9188,78.6,89,75,4.61,JM,1730763042
104,verkhnevilyuysk,63.4453,120.3167,-14.04,100,71,2.95,RU,1730763303
105,panaba,21.2833,-88.2667,75.13,94,21,9.82,MX,1730763304
106,alice springs,-23.7,133.8833,89.15,31,17,2.3,AU,1730763305
107,pemangkat,1.1667,108.9667,79.21,85,94,5.37,ID,1730763307
108,ilulissat,69.2167,-51.1,26.62,80,75,14.97,GL,1730763199
109,iskateley,67.6803,53.1512,26.58,91,100,7.7,RU,1730763244
110,margaret river,-33.95,115.0667,59.16,82,74,16.91,AU,1730763310
111,jamestown,42.097,-79.2353,58.64,54,0,13.8,US,1730763311
112,acarau,-2.8856,-40.12,77.63,82,74,17.9,BR,1730763312
113,paradip garh,20.3167,86.6167,72.27,81,0,7.05,IN,1730763313
114,susuman,62.7833,148.1667,-10.28,97,100,3.29,RU,1730763314
115,pandan,14.0453,124.1694,80.78,86,76,7.94,PH,1730763317
116,georgetown,5.4112,100.3354,78.73,83,20,3.44,MY,1730763318
117,aykhal,66.0,111.5,4.86,94,100,12.5,RU,1730763319
118,ilhabela,-23.7781,-45.3581,71.58,97,100,7.7,BR,1730763320
119,utrik,11.2278,169.8474,82.17,74,100,5.64,MH,1730763259
120,yaren,-0.5472,166.916,82.99,68,54,12.73,NR,1730763322
121,praia da vitoria,38.7333,-27.0667,68.25,73,0,10.16,PT,1730763323
122,novodvinsk,64.4165,40.8122,29.95,89,68,5.95,RU,1730763325
123,kone,-21.0595,164.8658,80.2,56,47,4.65,NC,1730763326
124,hithadhoo,-0.6,73.0833,82.27,68,40,9.95,MV,1730763327
125,agua dulce,18.1333,-94.1333,81.27,85,14,5.86,MX,1730763328
126,aktau,43.65,51.2,45.18,56,83,19.73,KZ,1730763329
127,la passe,45.5549,-0.8967,61.45,82,100,8.34,FR,1730763330
128,tazovsky,67.4667,78.7,23.43,95,100,14.56,RU,1730763331
129,saint-joseph,-21.3667,55.6167,71.98,83,19,6.02,RE,1730763332
130,chonchi,-42.6128,-73.8092,49.12,89,100,6.8,CL,1730763334
131,piacabucu,-10.4056,-36.4344,76.73,68,4,11.14,BR,1730763335
132,east london,-33.0153,27.9116,55.17,79,100,11.12,ZA,1730763136
133,pontianak,-0.0333,109.3333,75.18,100,75,2.3,ID,1730763337
134,yantzaza,-3.8278,-78.7594,70.63,97,86,0.74,EC,1730763338
135,faya-largeau,17.9257,19.1043,70.59,24,0,20.24,TD,1730763339
136,namdrik,5.5994,168.1028,83.57,67,87,5.41,MH,1730763340
137,hermanus,-34.4187,19.2345,55.69,66,59,12.41,ZA,1730763341
138,el granada,37.5027,-122.4694,66.78,67,0,11.5,US,1730763343
139,atafu village,-8.5421,-172.5159,83.03,71,100,13.29,TK,1730763344
140,bulgan,48.8125,103.5347,21.85,72,86,2.84,MN,1730763345
141,al ghayzah,16.2079,52.176,79.48,75,14,4.61,YE,1730763346
142,badger,64.8,-147.5333,20.98,87,100,5.75,US,1730763347
143,novyy turtkul',41.55,61.0167,45.3,68,78,7.29,UZ,1730763349
144,santiago de cao,-7.9589,-79.2392,64.53,82,75,10.36,PE,1730763350
145,naliya,23.2667,68.8333,78.37,61,0,4.34,IN,1730763352
146,mangrol,21.1167,70.1167,79.99,58,0,7.14,IN,1730763353
147,puerto madero,14.7208,-92.4215,79.0,94,75,5.75,MX,1730763354
148,college,64.8569,-147.8028,19.45,81,100,5.75,US,1730763284
149,koryukivka,51.7688,32.2481,28.26,86,8,9.73,UA,1730763356
150,perelyub,51.8667,50.3667,31.89,97,100,16.37,RU,1730763357
151,port hedland,-20.3167,118.5667,86.05,74,70,11.5,AU,1730763358
152,boguchany,58.3814,97.4531,33.91,71,96,7.07,RU,1730763360
153,oriximina,-1.7656,-55.8661,82.26,69,60,4.23,BR,1730763361
154,mount isa,-20.7333,139.5,91.17,46,6,6.91,AU,1730763362
155,bredasdorp,-34.5322,20.0403,54.28,61,74,7.74,ZA,1730763363
156,kerikeri,-35.2268,173.9474,66.87,43,1,6.58,NZ,1730763364
157,tam ky,15.5667,108.4833,75.67,93,100,6.49,VN,1730763365
158,arteche,12.2645,125.4048,79.27,88,98,4.47,PH,1730763366
159,petropavlovsk-kamchatsky,53.0452,158.6483,21.79,63,20,8.95,RU,1730763367
160,hotan,37.0997,79.9269,50.32,33,70,1.5,CN,1730763369
161,egersund,58.4513,5.9997,48.61,87,67,6.44,NO,1730763255
162,colachel,8.1667,77.25,73.85,96,61,3.36,IN,1730763371
163,cidreira,-30.1811,-50.2056,71.26,84,58,20.51,BR,1730763372
164,sandnessjoen,66.0217,12.6316,48.31,93,75,13.8,NO,1730763373
165,mohr,54.3528,9.7167,48.34,89,94,5.75,DE,1730763374
166,yurty,56.0498,97.6348,26.69,87,98,3.83,RU,1730763376
167,kunming,25.0389,102.7183,51.73,93,75,6.71,CN,1730763377
168,ust-nera,64.5667,143.2,-12.86,99,95,2.08,RU,1730763327
169,papao,-17.75,-149.55,83.88,75,97,4.32,PF,1730763379
170,illizi,26.4833,8.4667,72.48,29,32,9.22,DZ,1730763380
171,albany,42.6001,-73.9662,51.4,64,100,1.99,US,1730763381
172,port lincoln,-34.7333,135.8667,65.68,72,99,14.76,AU,1730763382
173,matias barbosa,-21.8692,-43.3194,65.59,99,100,3.47,BR,1730763383
174,maceio,-9.6658,-35.7353,72.84,88,20,5.75,BR,1730763385
175,codrington,-38.2667,141.9667,65.46,47,3,4.88,AU,1730763322
176,fale old settlement,-9.3852,-171.2468,79.63,79,100,6.89,TK,1730763387
177,springbok,-29.6643,17.8865,43.92,62,0,12.44,ZA,1730763388
178,kerouane,9.2667,-9.0167,70.16,66,97,3.44,GN,1730763389
179,maharajganj,27.1333,83.5667,69.87,82,9,4.83,IN,1730763392
180,antofagasta,-23.65,-70.4,61.88,82,42,7.63,CL,1730763254
181,saldanha,-33.0117,17.9442,55.53,63,0,20.67,ZA,1730763299
182,tarko-sale,64.9225,77.785,22.73,96,100,10.09,RU,1730763396
183,happy valley-goose bay,53.3168,-60.3315,32.31,51,75,3.44,CA,1730763397
184,tchintabaraden,15.8969,5.7985,75.49,20,0,9.95,NE,1730763398
185,dzhangala,49.2167,50.3333,38.62,95,100,16.26,KZ,1730763400
186,island harbour,50.724,-1.2758,52.99,70,55,1.99,GB,1730763401
187,kertih,4.5141,103.4483,75.22,94,40,0.0,MY,1730763402
188,nova vicosa,-17.8919,-39.3719,75.45,83,44,10.38,BR,1730763403
189,fort st. john,56.2499,-120.8529,31.89,93,100,8.05,CA,1730763404
190,scarborough,54.2797,-0.4044,49.91,68,100,3.6,GB,1730763405
191,mili,6.0815,171.735,83.14,70,43,6.89,MH,1730763406
192,lerwick,60.1545,-1.1494,50.97,82,100,4.88,GB,1730763408
193,tonghua,41.7201,125.9219,32.27,55,4,2.84,CN,1730763409
194,salekhard,66.53,66.6019,26.37,82,100,15.14,RU,1730763410
195,el matama,16.7095,33.3565,75.45,21,21,12.48,SD,1730763411
196,torghay,49.6339,63.4981,31.12,61,42,8.23,KZ,1730763412
197,moose jaw,50.4001,-105.5344,46.67,29,20,10.36,CA,1730763414
198,labrador city,52.9463,-66.9114,29.17,75,75,6.91,CA,1730763416
199,howrah,22.5892,88.3103,77.0,88,20,3.44,IN,1730763417
200,tokar,18.4254,37.729,82.31,63,80,12.17,SD,1730763418
201,saint-pierre,-21.3393,55.4781,73.08,68,20,4.61,RE,1730763419
202,yarmouth,41.7057,-70.2286,51.01,78,20,5.75,US,1730763420
203,mount gambier,-37.8333,140.7667,66.78,40,3,5.57,AU,1730763421
204,tsiombe,-25.3,45.4833,71.73,87,10,10.58,MG,1730763422
205,constantia,44.1833,28.65,39.88,60,6,15.64,RO,1730763423
206,awjilah,29.1081,21.2869,64.06,45,0,8.48,LY,1730763425
207,bodaybo,57.8506,114.1933,-5.75,99,61,2.1,RU,1730763426
208,polovinnoye,54.7914,65.9864,27.48,66,37,10.94,RU,1730763427
209,castillos,-34.1667,-53.8333,66.02,92,99,12.95,UY,1730763428
210,barra do corda,-5.5,-45.25,85.87,37,87,4.97,BR,1730763429
211,la ronge,55.1001,-105.2842,37.65,70,20,4.61,CA,1730763430
212,sovetskiy,61.3614,63.5842,25.84,69,93,11.63,RU,1730763431
213,toliara,-23.35,43.6667,74.88,80,0,5.06,MG,1730763432
214,goundi,9.3627,17.366,76.06,56,67,2.06,TD,1730763434
215,rudsar,37.1376,50.288,57.07,82,17,0.87,IR,1730763435
216,ancud,-41.8697,-73.8203,51.98,91,100,19.89,CL,1730763436
217,grand island,40.925,-98.342,47.28,88,100,9.22,US,1730763437
218,huarmey,-10.0681,-78.1522,66.33,84,27,9.37,PE,1730763438
219,piton saint-leu,-21.2196,55.3151,69.91,68,20,4.61,RE,1730763439
220,shuangyang,43.5242,125.6736,34.34,56,8,12.59,CN,1730763440
221,boyarka,50.3191,30.2973,35.1,75,5,8.46,UA,1730763441
222,tonota,-21.4833,27.4833,74.91,18,1,10.63,BW,1730763443
223,divnoye,45.9089,43.3547,36.99,70,85,22.75,RU,1730763444
224,al khafji,28.4391,48.4913,77.88,62,1,5.91,SA,1730763445
225,glace bay,46.1969,-59.957,38.14,77,75,5.01,CA,1730763446
226,puerto armuelles,8.2833,-82.8667,74.08,92,100,4.0,PA,1730763447
227,podporozh'ye,60.9112,34.1706,26.82,84,10,6.76,RU,1730763448
228,aripuana,-9.1667,-60.6333,73.87,96,54,2.57,BR,1730763449
229,itoman,26.1247,127.6694,78.82,76,20,8.05,JP,1730763451
230,sao joao da barra,-21.6403,-41.0511,75.13,85,98,17.13,BR,1730763453
231,mirnyy,62.5353,113.9611,-8.97,100,89,4.7,RU,1730763454
232,kapuskasing,49.4169,-82.4331,44.69,100,100,9.22,CA,1730763455
233,tatishchevo,51.6703,45.5953,29.25,96,100,15.77,RU,1730763456
234,calingasta,-31.3308,-69.4078,68.11,26,0,10.63,AR,1730763457
235,jaru,-10.4389,-62.4664,77.68,80,93,4.99,BR,1730763459
236,mumbwa,-14.9783,27.0619,68.2,72,12,4.68,ZM,1730763460
237,aswan,24.0934,32.907,67.19,48,0,8.48,EG,1730763461
238,linxia chengguanzhen,35.6003,103.2064,38.61,70,0,1.41,CN,1730763462
239,lukolela,-1.0605,17.1821,68.68,98,84,1.86,CD,1730763463
240,baker city,44.7749,-117.8344,38.91,81,75,16.11,US,1730763464
241,sharm el-sheikh,27.8518,34.305,73.54,43,0,4.61,EG,1730763465
242,pobugskoye,48.1658,30.5927,34.47,66,6,12.53,UA,1730763467
243,bechar,31.6167,-2.2167,61.12,55,100,2.3,DZ,1730763468
244,bilajer,40.5681,50.0378,51.62,76,0,20.71,AZ,1730763469
245,taro,-8.3862,115.28,74.3,82,59,2.33,ID,1730763470
246,zuenoula,7.4292,-6.0431,74.79,78,58,1.21,CI,1730763471
247,beaudesert,-27.9833,152.9833,84.74,42,31,6.02,AU,1730763472
248,yuxia,34.0615,108.6291,55.42,64,9,1.52,CN,1730763473
249,sakaiminato,35.55,133.2333,62.58,94,75,18.41,JP,1730763474
250,guerrero negro,27.9769,-114.0611,72.39,31,0,16.08,MX,1730763475
251,qaqortoq,60.7167,-46.0333,13.15,83,20,7.83,GL,1730763221
252,fatezh,52.0891,35.8632,26.91,85,100,13.49,RU,1730763478
253,cuenca,-2.8833,-78.9833,62.73,45,75,6.91,EC,1730763252
254,kaa-khem,51.6833,94.7333,26.42,73,84,3.33,RU,1730763480
255,gadzhiyevo,69.2551,33.3362,29.08,92,79,19.66,RU,1730763276
256,punta arenas,-53.15,-70.9167,48.31,61,75,21.85,CL,1730763156
257,crucecita,-28.95,-58.9833,71.15,89,94,18.34,AR,1730763483
258,weno,7.4515,151.8468,87.75,79,40,8.05,FM,1730763484
259,wuwei,37.9281,102.6414,38.77,47,0,1.43,CN,1730763485
260,san julian,21.0167,-102.1667,66.99,42,0,9.78,MX,1730763487
261,mount pearl,47.5166,-52.7813,35.15,67,100,12.66,CA,1730763488
262,chui,-33.6971,-53.4616,67.06,92,100,9.01,UY,1730763489
263,muana,-1.5283,-49.2167,80.69,67,77,8.43,BR,1730763490
264,chul'man,56.8479,124.9104,1.9,96,100,2.89,RU,1730763491
265,chibougamau,49.9168,-74.3659,33.42,93,100,12.66,CA,1730763492
266,abepura,-2.6333,140.5833,83.21,74,20,6.91,ID,1730763493
267,coaldale,49.7167,-112.6185,47.39,49,75,13.8,CA,1730763304
268,kapa'a,22.0752,-159.319,84.52,76,20,12.66,US,1730763496
269,mwatate,-3.5029,38.3795,67.78,88,54,3.49,KE,1730763497
270,klyuchi,52.2667,79.1667,32.95,68,100,5.73,RU,1730763134
271,derazhnya,49.2692,27.4338,30.45,73,8,6.62,UA,1730763499
272,rabo de peixe,37.8,-25.5833,69.31,99,75,17.27,PT,1730763500
273,val-d'or,48.1002,-77.7828,37.49,93,100,18.41,CA,1730763501
274,nemuro,43.3236,145.575,46.24,65,23,19.69,JP,1730763332
275,christchurch,-43.5333,172.6333,66.4,72,75,14.97,NZ,1730763240
276,puerto baquerizo moreno,-0.9,-89.6,68.07,72,82,12.17,EC,1730763100
277,naryn,41.4287,75.9911,38.66,43,100,6.6,KG,1730763506
278,afaahiti,-17.75,-149.2833,77.31,83,97,9.33,PF,1730763324
279,sinan,34.8262,126.1086,55.62,57,100,22.82,KR,1730763508
280,tahe,52.3333,124.7333,7.07,87,12,3.4,CN,1730763509
281,nova sintra,14.8667,-24.7167,80.38,76,78,6.26,CV,1730763088
282,kibre mengist,5.8833,38.9833,59.34,94,91,1.9,ET,1730763511
283,richards bay,-28.783,32.0377,66.51,84,99,14.32,ZA,1730763512
284,znamenskoye,57.1281,73.8282,29.05,70,75,14.12,RU,1730763513
285,rio preto da eva,-2.6994,-59.6997,83.89,58,73,1.28,BR,1730763514
286,punta del este,-34.9667,-54.95,64.51,94,75,10.36,UY,1730763517
287,san antonio de pale,-1.4014,5.6325,77.68,83,100,12.35,GQ,1730763328
288,qamdo,31.1667,97.2333,30.33,82,96,4.16,CN,1730763519
289,lorengau,-2.0226,147.2712,85.5,66,96,1.61,PG,1730763520
290,opuwo,-18.0607,13.84,69.76,28,80,2.28,NA,1730763521
291,tura,25.5198,90.2201,69.87,79,33,4.09,IN,1730763352
292,maxixe,-23.8597,35.3472,72.55,87,1,7.63,MZ,1730763523
293,kristiansund,63.1115,7.732,52.12,87,100,6.91,NO,1730763524
294,maturin,9.75,-63.1767,76.84,100,79,5.75,VE,1730763272
295,ulladulla,-35.35,150.4667,63.84,69,100,4.09,AU,1730763344
296,st. john's,47.5649,-52.7093,35.98,67,100,12.66,CA,1730763528
297,aleksandrovsk,59.158,57.5624,19.08,97,100,3.33,RU,1730763529
298,selfoss,63.9331,-20.9971,47.41,98,100,11.36,IS,1730763530
299,ibiza,38.9088,1.433,67.93,94,75,3.44,ES,1730763179
300,enewetak,11.3474,162.3373,81.09,82,99,11.25,MH,1730763215
301,zhaotong,27.3167,103.7167,49.23,93,100,3.6,CN,1730763405
302,vila velha,-20.3297,-40.2925,76.95,89,100,6.91,BR,1730763534
303,victoria,22.2855,114.1577,77.25,71,95,5.99,HK,1730763386
304,shubarshi,48.5872,57.1869,33.91,59,100,12.95,KZ,1730763537
305,okha,53.5739,142.9478,30.4,80,86,18.25,RU,1730763538
306,marksville,31.128,-92.0662,79.86,68,35,11.41,US,1730763539
307,tual,-5.6667,132.75,82.0,78,100,14.38,ID,1730763381
308,miquelon,47.0975,-56.3814,39.34,61,86,19.26,PM,1730763428
309,dunedin,-45.8742,170.5036,57.79,80,84,6.76,NZ,1730763542
310,superior,46.7208,-92.1041,52.77,79,100,12.66,US,1730763543
311,ketchikan,55.3422,-131.6461,47.34,66,20,9.22,US,1730763544
312,leninskoye,41.7589,69.3864,56.95,81,100,1.68,KZ,1730763546
313,chegdomyn,51.1167,133.0167,22.51,90,100,1.61,RU,1730763547
314,kingston,17.997,-76.7936,77.95,89,75,10.36,JM,1730763254
315,tolanaro,-25.0319,46.9987,75.27,88,20,20.71,MG,1730763549
316,nuuk,64.1835,-51.7216,27.21,86,100,5.75,GL,1730763233
317,sao vicente,-23.9631,-46.3919,74.95,26,100,5.01,BR,1730763551
318,paracuru,-3.41,-39.0306,77.83,81,26,13.87,BR,1730763552
319,leava,-14.3,-178.1667,81.21,78,61,11.56,WF,1730763553
320,antsiranana,-12.2787,49.2917,75.92,83,4,12.3,MG,1730763554
321,nacala,-14.5428,40.6728,75.88,88,1,6.49,MZ,1730763556
322,san rafael del yuma,18.4299,-68.6739,77.2,86,100,4.29,DO,1730763557
323,olonets,60.9847,32.9698,27.37,84,14,6.44,RU,1730763558
324,pasan,22.85,82.2,60.73,73,0,1.21,IN,1730763559
325,yelizovo,53.1873,158.3805,23.14,63,20,8.95,RU,1730763560
326,saipan,15.1355,145.701,88.5,77,40,18.41,MP,1730763107
327,arraial do cabo,-22.9661,-42.0278,75.16,94,100,11.5,BR,1730763347
328,tralee,52.2704,-9.7026,50.85,94,90,7.54,IE,1730763563
329,crane,31.3974,-102.3501,64.36,15,87,22.84,US,1730763147
330,sisimiut,66.9395,-53.6735,19.71,85,75,7.94,GL,1730763566
331,pacific grove,36.6177,-121.9166,66.38,73,0,10.36,US,1730763567
332,luderitz,-26.6481,15.1594,55.47,48,16,26.51,NA,1730763219
333,cabedelo,-6.9811,-34.8339,79.47,74,15,11.23,BR,1730763570
334,changji,44.0167,87.3167,39.99,87,57,4.47,CN,1730763571
335,garbahaarrey,3.3289,42.2209,77.76,76,76,10.96,SO,1730763572
336,huangmei,30.1924,116.025,61.38,64,67,8.05,CN,1730763573
337,bonthe,7.5264,-12.505,78.91,86,100,2.48,SL,1730763092
338,nabire,-3.3667,135.4833,77.85,86,100,3.53,ID,1730763576
339,bengkulu,-3.8004,102.2655,77.23,82,100,2.91,ID,1730763577
340,tuncurry,-32.1667,152.5,66.74,92,99,10.29,AU,1730763578
341,at taj,24.2049,23.2857,59.86,49,0,8.41,LY,1730763579
342,tolbazy,54.0241,55.8825,27.12,90,100,9.31,RU,1730763580
343,hammerfest,70.6634,23.6821,36.05,75,100,0.0,NO,1730763237
344,rabaul,-4.1967,152.1721,83.32,69,91,3.6,PG,1730763582
345,quang ngai,15.1167,108.8,73.67,97,98,4.16,VN,1730763583
346,kayes,14.0,-11.0,81.86,24,3,4.0,ML,1730763585
347,dakhla,23.6848,-15.958,67.53,86,100,12.17,EH,1730763586
348,kismayo,-0.3582,42.5454,78.66,86,80,7.74,SO,1730763587
349,isna,25.2934,32.554,67.82,48,0,7.2,EG,1730763588
350,aasiaat,68.7098,-52.8699,18.34,94,100,2.28,GL,1730763089
351,ghat,24.9647,10.1728,67.77,33,0,3.91,LY,1730763590
352,santa cruz,-17.8,-63.1667,84.25,70,41,10.36,BO,1730763412
353,nouadhibou,20.931,-17.0347,69.78,73,91,13.8,MR,1730763226
354,turkmenbasy,40.0222,52.9552,50.77,93,75,9.22,TM,1730763593
355,garissa,-0.4536,39.6401,78.67,75,95,10.2,KE,1730763595
356,bandarbeyla,9.4942,50.8122,77.16,87,22,5.5,SO,1730763596
357,mukalla,14.5425,49.1242,79.16,75,0,6.24,YE,1730763597
358,ormara,25.2088,64.6357,79.03,79,0,1.63,PK,1730763598
359,yuzhno-kurilsk,44.0306,145.8556,43.92,75,100,13.35,RU,1730763599
360,hasaki,35.7333,140.8333,68.49,71,91,19.82,JP,1730763600
361,zamora,-4.0692,-78.9567,75.42,67,100,3.62,EC,1730763601
362,diboll,31.1871,-94.781,79.09,78,75,13.8,US,1730763602
363,hirara,24.8,125.2833,80.46,78,40,12.66,JP,1730763174
364,fortuna,40.5982,-124.1573,59.92,69,100,0.0,US,1730763531
365,nagqu,31.5,92.0,27.41,30,100,1.86,CN,1730763606
366,egilsstadir,65.2653,-14.3948,31.91,100,21,3.44,IS,1730763607
367,san jose del guaviare,2.5729,-72.6459,72.9,96,100,2.3,CO,1730763608
368,novyy urgal,51.0736,132.5642,23.27,89,100,2.77,RU,1730763609
369,flin flon,54.7682,-101.865,37.24,75,20,6.91,CA,1730763610
370,veraval,20.9,70.3667,79.05,60,0,8.41,IN,1730763611
371,mawlaik,23.6333,94.4167,69.71,81,73,1.21,MM,1730763612
372,sao gabriel da cachoeira,-0.1303,-67.0892,78.17,78,100,2.19,BR,1730763614
373,edson,53.5835,-116.4356,33.94,69,100,4.61,CA,1730763615
374,roma,43.2128,-75.4557,53.69,64,100,5.01,US,1730763616
375,amga,60.8953,131.9608,-12.14,100,96,1.5,RU,1730763617
376,suratgarh,29.3167,73.9,74.68,25,0,6.96,IN,1730763618
377,elko,41.0002,-115.5012,45.23,45,30,8.99,US,1730763619
378,san patricio,28.017,-97.5169,82.35,79,72,22.08,US,1730763274
379,usinsk,65.9939,57.5281,23.13,93,100,16.22,RU,1730763616
380,coquimbo,-29.9533,-71.3436,60.53,74,0,12.66,CL,1730763622
381,katsuren-haebaru,26.3369,127.8719,78.82,83,20,3.44,JP,1730763577
382,akureyri,65.6835,-18.0878,39.13,93,75,2.3,IS,1730763625
383,misratah,32.3754,15.0925,69.94,69,7,6.04,LY,1730763300
384,morant bay,17.8815,-76.4093,78.66,92,100,14.36,JM,1730763627
385,malvan,16.0667,73.4667,79.02,72,53,5.64,IN,1730763628
386,east ballina,-28.8667,153.5833,80.62,64,27,5.79,AU,1730763629
387,mantua,45.1667,10.7833,50.99,98,0,3.0,IT,1730763630
388,batangafo,7.3008,18.2833,74.1,79,100,3.36,CF,1730763631
389,remire-montjoly,4.9167,-52.2667,80.64,89,75,3.44,GF,1730763632
390,murray bridge,-35.1167,139.2667,74.68,31,88,12.39,AU,1730763634
391,pionerskiy,54.9508,20.2275,39.04,68,49,11.9,RU,1730763635
392,natal,-5.795,-35.2094,79.45,78,75,13.8,BR,1730763192
393,sinop,41.7711,34.8709,41.16,71,47,6.98,TR,1730763637
394,zakharivka,47.3333,29.75,35.6,63,6,10.31,UA,1730763638
395,nema,57.5067,50.5011,18.75,91,94,0.2,RU,1730763639
396,zapala,-38.8992,-70.0544,47.68,48,89,18.68,AR,1730763643
397,laojunmiao,39.8333,97.7333,39.02,28,4,2.82,CN,1730763518
398,ad dabbah,18.05,30.95,67.78,28,0,10.69,SD,1730763645
399,ban karon,7.8477,98.2985,84.78,86,100,3.67,TH,1730763646
400,montepuez,-13.1256,38.9997,70.97,79,0,5.28,MZ,1730763647
401,la peca,-5.6111,-78.435,74.1,77,75,6.78,PE,1730763648
402,vardenis,40.1827,45.7311,37.72,71,70,16.82,AM,1730763650
403,iron river,46.0927,-88.6423,54.28,98,100,5.23,US,1730763651
404,coahuayana de hidalgo,18.7,-103.6583,80.01,82,56,3.44,MX,1730763652
405,porto novo,6.4965,2.6036,77.88,85,0,4.07,BJ,1730763153
406,kigali,-1.95,30.0588,65.68,77,40,5.75,RW,1730763654
407,vorgashor,67.5833,63.95,24.93,93,100,16.26,RU,1730763132
408,baharly,38.4362,57.4316,58.24,77,100,6.6,TM,1730763656
409,lacombe,52.4668,-113.7353,30.45,89,100,2.28,CA,1730763657
410,knysna,-34.0363,23.0471,54.21,81,98,7.7,ZA,1730763658
411,greymouth,-42.4667,171.2,52.61,97,100,5.7,NZ,1730763133
412,languyan,5.2618,120.0807,82.33,79,99,6.29,PH,1730763661
413,palikir - national government center,6.9248,158.1611,90.34,66,40,5.75,FM,1730763123
414,flying fish cove,-10.4217,105.6791,80.28,94,100,10.36,CX,1730763663
415,lodwar,3.1191,35.5973,83.68,52,90,9.37,KE,1730763664
416,el haouaria,37.05,11.0144,66.22,80,67,6.53,TN,1730763665
417,wamba,8.9333,8.6,72.12,42,18,4.25,NG,1730763666
418,yatou,37.15,122.3833,48.25,45,17,8.32,CN,1730763430
419,kalmunai,7.4167,81.8167,76.91,85,92,4.56,LK,1730763668
420,yanam,16.7333,82.2167,70.92,90,58,3.38,IN,1730763670
421,maile,-38.9466,-72.3727,57.81,86,70,2.01,CL,1730763671
422,svetlyy,54.675,20.1347,41.85,80,52,6.71,RU,1730763672
423,ta`u,-14.2336,-169.5144,82.2,78,100,12.73,AS,1730763673
424,waimea,20.0231,-155.6717,71.46,97,73,1.01,US,1730763674
425,vyazemskiy,47.5378,134.7525,27.1,65,72,8.25,RU,1730763676
426,yongbyon,39.8133,125.8042,38.61,55,58,5.12,KP,1730763677
427,apatity,67.5641,33.4031,24.73,91,38,5.86,RU,1730763679
428,zhalantun,48.0,122.7167,22.24,71,33,6.04,CN,1730763680
429,black point,-34.6187,137.8972,68.02,52,86,6.31,AU,1730763681
430,mhamid,29.82,-5.72,70.16,28,88,2.06,MA,1730763682
431,kargasok,59.0556,80.8572,28.02,75,48,20.69,RU,1730763683
432,revda,56.801,59.9303,21.79,94,96,6.38,RU,1730763684
433,ishikawa,26.4233,127.8214,77.74,83,20,3.44,JP,1730763685
434,greenwood,34.1668,-82.1165,66.79,63,75,6.91,US,1730763687
435,kupang,-10.1667,123.5833,88.38,70,20,9.22,ID,1730763688
436,moron,-34.6534,-58.6198,64.09,91,20,11.01,AR,1730763689
437,menongue,-14.6585,17.691,63.73,83,87,3.02,AO,1730763691
438,krizevci,46.0219,16.5425,40.6,69,1,3.6,HR,1730763692
439,villa gesell,-37.2639,-56.973,59.5,67,58,10.27,AR,1730763693
440,colonia,50.9333,6.95,47.12,81,0,3.44,DE,1730763607
441,kazanskoye,55.6448,69.235,28.22,69,20,15.55,RU,1730763695
442,iranshahr,27.2025,60.6848,75.31,22,0,0.92,IR,1730763697
443,nantucket,41.2835,-70.0995,51.91,66,0,11.5,US,1730763402
444,al majaridah,19.1236,41.9111,78.24,83,18,1.59,SA,1730763699
445,manokwari,-0.8667,134.0833,81.0,75,98,9.93,ID,1730763700
446,as sulayyil,20.4607,45.5779,71.37,39,0,4.97,SA,1730763701
447,loncoche,-39.3667,-72.6333,46.6,90,76,1.74,CL,1730763702
448,buka,40.8108,69.1986,59.09,67,100,1.59,UZ,1730763703
449,eydhafushi,5.1033,73.0708,80.08,78,100,9.66,MV,1730763704
450,dungarvan,52.0881,-7.6253,53.1,98,98,8.99,IE,1730763706
451,savanna-la-mar,18.219,-78.1332,78.49,89,89,6.85,JM,1730763707
452,quellon,-43.1167,-73.6167,49.08,82,98,7.09,CL,1730763708
453,yeppoon,-23.1333,150.7333,77.14,60,1,11.12,AU,1730763709
454,novo aripuana,-5.1206,-60.3797,78.75,71,94,1.74,BR,1730763710
455,yankton,42.8711,-97.3973,49.12,87,0,6.91,US,1730763711
456,nikolayevsk-on-amure,53.1406,140.73,24.1,85,100,3.31,RU,1730763712
457,khandyga,62.6667,135.6,-10.57,96,68,1.23,RU,1730763713
458,masterton,-40.9597,175.6575,65.48,64,59,10.09,NZ,1730763714
459,kavieng,-2.5744,150.7967,83.17,70,100,3.04,PG,1730763716
460,aydarken,39.9443,71.3429,47.95,56,100,6.4,KG,1730763717
461,pangody,65.85,74.4859,20.44,93,100,17.07,RU,1730763718
462,cabo san lucas,22.8909,-109.9124,78.76,47,0,10.36,MX,1730763460
463,boa vista,2.8197,-60.6733,91.38,52,40,9.22,BR,1730763720
464,grande prairie,55.1667,-118.8027,32.18,100,100,5.75,CA,1730763664
465,atherton,53.5237,-2.4935,50.29,85,100,1.99,GB,1730763722
466,dunkwa,5.9656,-1.78,75.25,94,98,1.92,GH,1730763723
467,whangarei,-35.7317,174.3239,70.45,32,2,1.07,NZ,1730763724
468,tayu,-6.5397,111.0518,82.38,72,90,5.97,ID,1730763726
469,al kharijah,25.4514,30.5464,65.12,56,0,6.15,EG,1730763727
470,luanda,-8.8368,13.2343,78.8,78,75,9.22,AO,1730763595
471,wukari,7.85,9.7833,74.17,44,98,4.09,NG,1730763729
472,koulamoutou,-1.1303,12.4736,71.82,98,100,0.47,GA,1730763730
473,chos malal,-37.3781,-70.2709,57.07,31,7,8.19,AR,1730763451
474,contramaestre,20.2978,-76.2414,75.24,90,87,6.78,CU,1730763734
475,petauke,-14.2426,31.3253,72.37,51,46,3.78,ZM,1730763735
476,dhidhdhoo,6.8833,73.1,82.18,71,100,4.14,MV,1730763736
477,nizhneangarsk,55.7833,109.55,13.39,93,28,2.28,RU,1730763737
478,ostersund,63.1792,14.6357,46.62,89,100,14.97,SE,1730763738
479,narimanov,46.6927,47.8498,42.15,71,94,23.49,RU,1730763739
480,sabang,5.8933,95.3214,81.88,76,100,14.43,ID,1730763740
481,kutum,14.2,24.6667,66.27,32,39,8.12,SD,1730763741
482,mogadishu,2.0371,45.3438,77.2,88,76,6.42,SO,1730763743
483,kavaratti,10.5669,72.642,81.05,76,49,6.35,IN,1730763744
484,petukhovo,55.0692,67.9019,27.57,66,8,13.42,RU,1730763745
485,altamira,-3.2033,-52.2064,83.64,57,100,2.17,BR,1730763746
486,mana,5.6592,-53.7767,80.76,79,89,13.24,GF,1730763747
487,leh,34.1667,77.5833,28.38,41,0,4.97,IN,1730763748
488,vegreville,53.5001,-112.0518,41.54,46,89,6.91,CA,1730763630
489,necochea,-38.5473,-58.7368,55.62,48,0,4.23,AR,1730763750
490,qingnian,36.8456,115.7117,44.71,38,50,1.81,CN,1730763752
491,pamanukan,-6.2842,107.8106,81.28,74,99,2.3,ID,1730763753
492,key west,24.5557,-81.7826,82.4,78,0,16.11,US,1730763754
493,san luis de since,9.2439,-75.1468,74.84,93,91,9.04,CO,1730763755
494,banda aceh,5.5577,95.3222,80.28,75,91,9.57,ID,1730763756
495,farasan,16.7022,42.1183,85.86,62,1,4.76,SA,1730763757
496,bollnas,61.3482,16.3946,37.81,90,51,4.59,SE,1730763758
497,whistler,50.1164,-122.9695,37.78,96,97,5.53,CA,1730763760
498,yabelo,4.8833,38.0833,62.02,79,100,6.06,ET,1730763761
499,piet retief,-27.0071,30.8132,59.38,83,74,3.89,ZA,1730763762
500,puerto quijarro,-17.7833,-57.7667,81.27,67,50,1.99,BO,1730763763
501,saynshand,44.8824,110.1163,26.85,39,2,5.08,MN,1730763764
502,namibe,-15.1961,12.1522,67.78,79,53,10.13,AO,1730763765
503,kargil,34.5667,76.1,30.34,55,0,3.42,IN,1730763766
504,san pedro pochutla,15.7333,-96.4667,85.71,88,69,7.25,MX,1730763767
505,mahina,-17.5065,-149.489,83.97,79,40,12.66,PF,1730763769
506,bear,39.6293,-75.6583,56.05,70,0,6.91,US,1730763770
507,mournies,35.4764,24.0092,54.0,82,20,0.0,GR,1730763771
508,roswell,34.0232,-84.3616,60.67,88,100,4.61,US,1730763772
509,kenora,49.8167,-94.4337,41.97,93,100,9.22,CA,1730763773
510,basoko,1.2391,23.616,70.05,93,94,1.66,CD,1730763774
511,nadvoitsy,63.8667,34.3167,26.65,83,15,11.07,RU,1730763775
512,smithers,54.7804,-127.1743,35.92,93,75,3.44,CA,1730763777
513,vila franca do campo,37.7167,-25.4333,70.21,99,89,14.41,PT,1730763778
514,san mariano,7.5,126.0,78.3,83,93,1.05,PH,1730763779
515,acapulco de juarez,16.8634,-99.8901,85.82,74,75,9.22,MX,1730763780
516,crescent city,41.756,-124.2018,56.48,85,100,0.0,US,1730763575
517,kudahuvadhoo,2.6708,72.8944,83.07,69,74,12.48,MV,1730763782
518,goalpara,26.1667,90.6167,69.55,86,66,4.34,IN,1730763786
519,sitka,57.0531,-135.33,44.49,70,100,8.05,US,1730763787
520,nyurba,63.2842,118.3319,-13.4,100,74,3.49,RU,1730763788
521,mugeni,46.25,25.2167,32.23,71,20,3.33,RO,1730763789
522,san luis de la loma,17.2706,-100.8939,80.47,83,27,5.21,MX,1730763790
523,bel ombre,-4.6167,55.4167,78.64,83,20,0.0,SC,1730763792
524,laguna,38.421,-121.4238,72.01,32,0,9.22,US,1730763793
525,panjakent,39.4952,67.6093,61.7,60,100,4.99,TJ,1730763794
526,mount hagen,-5.8581,144.2274,61.56,94,100,11.5,PG,1730763795
527,vilyuysk,63.7553,121.6247,-12.32,100,90,3.0,RU,1730763796
528,fuding,27.3273,120.214,66.4,78,96,2.95,CN,1730763797
529,port saint john's,-31.6229,29.5448,54.95,91,100,5.93,ZA,1730763798
530,hoi an,15.8794,108.335,75.16,88,100,14.79,VN,1730763799
531,pine bluff,34.2284,-92.0032,82.33,58,0,20.71,US,1730763801
532,sultanah,24.4926,39.5857,75.65,33,0,2.3,SA,1730763802
533,baruun-urt,46.6806,113.2792,15.22,74,3,1.88,MN,1730763803
534,nacozari de garcia,30.3742,-109.6908,54.39,23,0,3.71,MX,1730763804
535,teguise,29.0605,-13.564,64.62,83,20,13.8,ES,1730763805
536,dwarka,22.2394,68.9678,81.23,62,0,7.2,IN,1730763806
537,sainte-suzanne,-20.9061,55.6089,73.58,78,100,5.75,RE,1730763807
538,faaborg,55.0951,10.2423,51.93,76,100,4.79,DK,1730763809
539,neryungri,56.6709,124.6491,4.12,95,98,4.65,RU,1730763810
540,lalganj,25.8667,85.1833,71.33,68,17,6.2,IN,1730763811
541,san juan bautista,-14.0108,-75.7358,69.53,69,3,7.43,PE,1730763813
542,rio verde de mato grosso,-18.9181,-54.8442,77.79,78,59,3.51,BR,1730763814
543,ocean city,39.2776,-74.5746,55.06,88,100,3.94,US,1730763815
544,kostanay,53.1667,63.5833,25.09,86,0,8.95,KZ,1730763817
545,puerto aysen,-45.4,-72.7,42.03,100,100,5.59,CL,1730763818
546,zalari,53.5584,102.5065,22.62,72,76,5.39,RU,1730763819
547,atar,20.5169,-13.0499,81.99,16,3,4.07,MR,1730763820
548,hobyo,5.3505,48.5268,79.27,80,43,7.76,SO,1730763821
549,petrolina,-9.3986,-40.5008,87.85,33,0,6.91,BR,1730763822
550,abra pampa,-22.7205,-65.697,59.32,51,0,17.0,AR,1730763823
551,katsuura,35.1333,140.3,65.53,75,82,10.58,JP,1730763825
552,dan khun thot,15.2085,101.7714,71.47,85,55,11.07,TH,1730763826
553,nadym,65.5333,72.5167,20.43,91,99,13.49,RU,1730763828
554,westport,41.1415,-73.3579,55.17,78,100,8.05,US,1730763829
555,sturgeon bay,44.8342,-87.377,59.36,94,40,8.05,US,1730763730
556,orono,44.8831,-68.672,42.51,74,100,1.01,US,1730763831
557,biltine,14.5333,20.9167,75.15,27,1,7.09,TD,1730763833
558,tirumullaivasal,11.2333,79.8333,75.76,77,80,6.91,IN,1730763834
559,naze,28.3667,129.4833,74.32,66,80,13.33,JP,1730763835
560,nadi,-17.8,177.4167,86.0,58,40,10.36,FJ,1730763837
561,wad az zaki,14.4619,32.2065,77.11,19,5,15.23,SD,1730763838
562,bawku,11.0616,-0.2417,75.87,26,2,7.81,GH,1730763839
563,purranque,-40.9167,-73.1667,51.28,71,78,5.68,CL,1730763840
564,lata,40.1629,-8.3327,58.71,94,94,5.57,PT,1730763639
565,dunay,42.8803,132.3375,37.56,46,0,10.89,RU,1730763843
566,raposa,-6.5167,-44.1833,83.71,33,85,1.54,BR,1730763844
567,aldinga beach,-35.2793,138.4604,73.08,43,100,8.28,AU,1730763845
568,kharp,66.8014,65.8081,25.2,94,87,14.94,RU,1730763846
569,phibun mangsahan,15.2447,105.2291,73.83,89,77,4.36,TH,1730763847
570,lazaro cardenas,17.9583,-102.2,81.14,78,4,5.41,MX,1730763848
571,ghanzi,-21.5667,21.7833,73.29,16,82,16.44,BW,1730763849
572,roslavl',53.9528,32.8639,30.52,88,68,9.15,RU,1730763851
